{
	"name": "map3d-sphere",
	"version": "0.2.5",
	"description": "map3d-sphere",
	"main": "index.js",
	"scripts": {
		"test": "echo \"Error: no test specified\" && exit 1"
	},
	"author": "shuke.ft",
	"dependencies": {
		"bcore": "0.0.21",
		"dmap": "0.1.53"
	},
	"datav": {
		"cn_name": "自定义3d球形地图",
		"protocol": 2,
		"private": true,
		"config": {
			"rotation": {
				"name": "相机旋转",
				"type": "group",
				"fold": true,
				"children": {
					"x": {
						"name": "x",
						"type": "number",
						"min": -3.14,
						"max": 3.14,
						"default": -3.1
					},
					"y": {
						"name": "y",
						"type": "number",
						"min": -1.6,
						"max": 1.6,
						"default": 0.5
					}
				}
			},
			"center": {
				"name": "相机中心",
				"type": "group",
				"fold": true,
				"children": {
					"x": {
						"type": "number",
						"default": 0,
						"min": -10000000,
						"max": 10000000,
						"step": 100
					},
					"y": {
						"type": "number",
						"default": 0,
						"min": -10000000,
						"max": 10000000,
						"step": 100
					},
					"z": {
						"type": "number",
						"default": 0,
						"min": -10000000,
						"max": 10000000,
						"step": 100
					}
				}
			},
			"distance": {
				"name": "相机距离",
				"type": "number",
				"min": 5843979,
				"max": 60843979,
				"default": 17843979
			},
			"autoRotateSpeed": {
				"name": "自转速度",
				"type": "number",
				"default": 0,
				"min": -0.01,
				"max": 0.01,
				"step": 0.0001
			},
			"autoPlay": {
				"name": "轮播",
				"type": "group",
				"fold": true,
				"children": {
					"isPlay": {
						"name": "是否轮播",
						"default": false,
						"type": "select",
						"select": {
							"轮播": true,
							"停止": false
						}
					},
					"playSpeed": {
						"name": "轮播速度",
						"type": "number",
						"default": 1,
						"max": 10,
						"min": 1,
						"step": 1
					}
				}
			}
		},
		"apis": {
			"play": {
				"handler": "render",
				"description": "位置轮播",
				"fields": {
					"lat": {
						"description": "纬度"
					},
					"lng": {
						"description": "经度"
					}
				}
			}
		},
		"api_data": {
			"play": [
				{
					"lat": 39.9,
					"lng": 116.4
				},
				{
					"lat": 31.23,
					"lng": 121.47
				},
				{
					"lat": 22.27,
					"lng": 114.16
				},
				{
					"lat": 1.58,
					"lng": 103.79
				},
				{
					"lat": 35.17,
					"lng": 134.03
				},
				{
					"lat": 37.56,
					"lng": -77.42
				},
				{
					"lat": 37.77,
					"lng": -122.41
				},
				{
					"lat": 50.1,
					"lng": 8.63
				},
				{
					"lat": -35.38,
					"lng": 149.25
				}
			]
		},
		"view": {
			"width": "900",
			"height": "600",
			"minWidth": "150",
			"minHeight": "60",
			"z-index": 100
		},
		"type": [
			"map_earth"
		],
		"children": {
			"default": [
				"map3d-sphere-globe",
				"map3d-sphere-solar"
			],
			"supportTypes": [
				"map3d-subcoms"
			],
			"supportNames": []
		},
		"icon": {
			"100x65": "https://datav.oss-cn-hangzhou.aliyuncs.com/uploads/images/31b4f3a1748a5207c79624f4089cbe0e.png",
			"55x55": "https://datav.oss-cn-hangzhou.aliyuncs.com/uploads/images/63113bf8560d73fabdf59ac88ff02591.png"
		}
	}
}